{
  "Amersham": {
    "lat": 51.674126,
    "lng": -0.607714,
    "name": "Amersham Underground Station"
  },
  "Chalfont_and_Latimer": {
    "lat": 51.667985,
    "lng": -0.560689,
    "name": "Chalfont & Latimer Underground Station"
  },
  "Chesham": {
    "lat": 51.705208,
    "lng": -0.611247,
    "name": "Chesham Underground Station"
  },
  "Croxley": {
    "lat": 51.647044,
    "lng": -0.441718,
    "name": "Croxley Underground Station"
  },
  "Chorleywood": {
    "lat": 51.654358,
    "lng": -0.518461,
    "name": "Chorleywood Underground Station"
  },
  "Moor_Park": {
    "lat": 51.629845,
    "lng": -0.432454,
    "name": "Moor Park Underground Station"
  },
  "Rickmansworth": {
    "lat": 51.640207,
    "lng": -0.473703,
    "name": "Rickmansworth Underground Station"
  },
  "Watford": {
    "lat": 51.657446,
    "lng": -0.417377,
    "name": "Watford Underground Station"
  },
  "Acton_Town": {
    "lat": 51.503057,
    "lng": -0.280462,
    "name": "Acton Town Underground Station"
  },
  "Archway": {
    "lat": 51.565478,
    "lng": -0.134819,
    "name": "Archway Underground Station"
  },
  "Aldgate_East": {
    "lat": 51.515037,
    "lng": -0.072384,
    "name": "Aldgate East Underground Station"
  },
  "Angel": {
    "lat": 51.532624,
    "lng": -0.105898,
    "name": "Angel Underground Station"
  },
  "Aldgate": {
    "lat": 51.514246,
    "lng": -0.075689,
    "name": "Aldgate Underground Station"
  },
  "Alperton": {
    "lat": 51.540627,
    "lng": -0.29961,
    "name": "Alperton Underground Station"
  },
  "Arnos_Grove": {
    "lat": 51.616446,
    "lng": -0.133062,
    "name": "Arnos Grove Underground Station"
  },
  "Arsenal": {
    "lat": 51.558655,
    "lng": -0.107457,
    "name": "Arsenal Underground Station"
  },
  "Bromley-by-Bow_district": {
    "lat": 51.524839,
    "lng": -0.011538,
    "name": "Bromley-by-Bow Underground Station"
  },
  "Barbican": {
    "lat": 51.520275,
    "lng": -0.097993,
    "name": "Barbican Underground Station"
  },
  "Bounds_Green": {
    "lat": 51.607034,
    "lng": -0.124235,
    "name": "Bounds Green Underground Station"
  },
  "Becontree": {
    "lat": 51.540331,
    "lng": 0.127016,
    "name": "Becontree Underground Station"
  },
  "Barkingside": {
    "lat": 51.585689,
    "lng": 0.088585,
    "name": "Barkingside Underground Station"
  },
  "Bethnal_Green": {
    "lat": 51.523917,
    "lng": -0.059568,
    "name": "Bethnal Green Rail Station"
  },
  "Balham": {
    "lat": 51.443288,
    "lng": -0.152997,
    "name": "Balham Underground Station"
  },
  "Bermondsey": {
    "lat": 51.49775,
    "lng": -0.063993,
    "name": "Bermondsey Underground Station"
  },
  "Bond_Street": {
    "lat": 51.51369,
    "lng": -0.149517,
    "name": "Bond Street"
  },
  "Borough": {
    "lat": 51.501199,
    "lng": -0.09337,
    "name": "Borough Underground Station"
  },
  "Boston_Manor": {
    "lat": 51.495635,
    "lng": -0.324939,
    "name": "Boston Manor Underground Station"
  },
  "Barons_Court_district": {
    "lat": 51.490311,
    "lng": -0.213427,
    "name": "Barons Court Underground Station"
  },
  "Baker_Street": {
    "lat": 51.522883,
    "lng": -0.15713,
    "name": "Baker Street Underground Station"
  },
  "Burnt_Oak": {
    "lat": 51.602774,
    "lng": -0.264048,
    "name": "Burnt Oak Underground Station"
  },
  "Brent_Cross": {
    "lat": 51.57665,
    "lng": -0.213622,
    "name": "Brent Cross Underground Station"
  },
  "Bow_Road": {
    "lat": 51.52694,
    "lng": -0.025128,
    "name": "Bow Road Underground Station"
  },
  "Bayswater_circle": {
    "lat": 51.512284,
    "lng": -0.187938,
    "name": "Bayswater Underground Station"
  },
  "Brixton": {
    "lat": 51.462618,
    "lng": -0.114888,
    "name": "Brixton Underground Station"
  },
  "Belsize_Park": {
    "lat": 51.550529,
    "lng": -0.164783,
    "name": "Belsize Park Underground Station"
  },
  "Caledonian_Road": {
    "lat": 51.548519,
    "lng": -0.118493,
    "name": "Caledonian Road Underground Station"
  },
  "Chalk_Farm": {
    "lat": 51.544118,
    "lng": -0.153388,
    "name": "Chalk Farm Underground Station"
  },
  "Covent_Garden": {
    "lat": 51.513093,
    "lng": -0.124436,
    "name": "Covent Garden Underground Station"
  },
  "Chancery_Lane": {
    "lat": 51.518247,
    "lng": -0.111583,
    "name": "Chancery Lane Underground Station"
  },
  "Charing_Cross": {
    "lat": 51.50741,
    "lng": -0.127277,
    "name": "Charing Cross Underground Station"
  },
  "Cockfosters": {
    "lat": 51.65152,
    "lng": -0.149171,
    "name": "Cockfosters Underground Station"
  },
  "Colindale": {
    "lat": 51.595424,
    "lng": -0.249919,
    "name": "Colindale Underground Station"
  },
  "Clapham_Common": {
    "lat": 51.461742,
    "lng": -0.138317,
    "name": "Clapham Common Underground Station"
  },
  "Canons_Park": {
    "lat": 51.607701,
    "lng": -0.294693,
    "name": "Canons Park Underground Station"
  },
  "Clapham_North": {
    "lat": 51.465135,
    "lng": -0.130016,
    "name": "Clapham North Underground Station"
  },
  "Clapham_South": {
    "lat": 51.452654,
    "lng": -0.147582,
    "name": "Clapham South Underground Station"
  },
  "Colliers_Wood": {
    "lat": 51.41816,
    "lng": -0.178086,
    "name": "Colliers Wood Underground Station"
  },
  "Cannon_Street": {
    "lat": 51.51151,
    "lng": -0.090432,
    "name": "Cannon Street Underground Station"
  },
  "Camden_Town": {
    "lat": 51.539292,
    "lng": -0.14274,
    "name": "Camden Town Underground Station"
  },
  "Chiswick_Park": {
    "lat": 51.494627,
    "lng": -0.267972,
    "name": "Chiswick Park Underground Station"
  },
  "Canary_Wharf_dlr": {
    "lat": 51.506321,
    "lng": -0.018815,
    "name": "Canary Wharf"
  },
  "Dagenham_East": {
    "lat": 51.544096,
    "lng": 0.166017,
    "name": "Dagenham East Underground Station"
  },
  "Dagenham_Heathway": {
    "lat": 51.541639,
    "lng": 0.147527,
    "name": "Dagenham Heathway Underground Station"
  },
  "Dollis_Hill": {
    "lat": 51.551955,
    "lng": -0.239068,
    "name": "Dollis Hill Underground Station"
  },
  "Elephant_And_Castle": {
    "lat": 51.494536,
    "lng": -0.100606,
    "name": "Elephant & Castle Underground Station"
  },
  "Eastcote_metropolitan": {
    "lat": 51.576506,
    "lng": -0.397373,
    "name": "Eastcote Underground Station"
  },
  "East_Acton": {
    "lat": 51.516612,
    "lng": -0.247248,
    "name": "East Acton Underground Station"
  },
  "Ealing_Common": {
    "lat": 51.51014,
    "lng": -0.288265,
    "name": "Ealing Common Underground Station"
  },
  "Earls_Court": {
    "lat": 51.492063,
    "lng": -0.193378,
    "name": "Earl's Court Underground Station"
  },
  "East_Finchley": {
    "lat": 51.587131,
    "lng": -0.165012,
    "name": "East Finchley Underground Station"
  },
  "Edgware": {
    "lat": 51.613653,
    "lng": -0.274928,
    "name": "Edgware Underground Station"
  },
  "East_Ham_district": {
    "lat": 51.538948,
    "lng": 0.051186,
    "name": "East Ham Underground Station"
  },
  "Embankment": {
    "lat": 51.513233,
    "lng": -0.088515,
    "name": "Bank DLR Station"
  },
  "Elm_Park": {
    "lat": 51.549775,
    "lng": 0.19864,
    "name": "Elm Park Underground Station"
  },
  "East_Putney": {
    "lat": 51.459205,
    "lng": -0.211,
    "name": "East Putney Underground Station"
  },
  "Edgware_Road_bakerloo": {
    "lat": 51.519858,
    "lng": -0.167832,
    "name": "Edgware Road (Circle Line) Underground Station"
  },
  "Euston_Square_circle": {
    "lat": 51.528055,
    "lng": -0.132182,
    "name": "Euston Underground Station"
  },
  "Fulham_Broadway": {
    "lat": 51.480081,
    "lng": -0.195422,
    "name": "Fulham Broadway Underground Station"
  },
  "Farringdon_circle": {
    "lat": 51.519961,
    "lng": -0.103051,
    "name": "Farringdon"
  },
  "Fairlop": {
    "lat": 51.595618,
    "lng": 0.091004,
    "name": "Fairlop Underground Station"
  },
  "Finsbury_Park": {
    "lat": 51.564158,
    "lng": -0.106825,
    "name": "Finsbury Park Underground Station"
  },
  "Finchley_Central": {
    "lat": 51.600921,
    "lng": -0.192527,
    "name": "Finchley Central Underground Station"
  },
  "Finchley_Road": {
    "lat": 51.546825,
    "lng": -0.179845,
    "name": "Finchley Road Underground Station"
  },
  "Goodge_Street": {
    "lat": 51.520599,
    "lng": -0.134361,
    "name": "Goodge Street Underground Station"
  },
  "Golders_Green": {
    "lat": 51.572259,
    "lng": -0.194039,
    "name": "Golders Green Underground Station"
  },
  "Goldhawk_Road_circle": {
    "lat": 51.502005,
    "lng": -0.226715,
    "name": "Goldhawk Road Underground Station"
  },
  "Green_Park": {
    "lat": 51.506947,
    "lng": -0.142787,
    "name": "Green Park Underground Station"
  },
  "Great_Portland_Street_circle": {
    "lat": 51.52384,
    "lng": -0.144262,
    "name": "Great Portland Street Underground Station"
  },
  "Gants_Hill": {
    "lat": 51.576544,
    "lng": 0.066185,
    "name": "Gants Hill Underground Station"
  },
  "Gloucester_Road": {
    "lat": 51.494316,
    "lng": -0.182658,
    "name": "Gloucester Road Underground Station"
  },
  "Holborn": {
    "lat": 51.51758,
    "lng": -0.120475,
    "name": "Holborn Underground Station"
  },
  "High_Barnet": {
    "lat": 51.650541,
    "lng": -0.194298,
    "name": "High Barnet Underground Station"
  },
  "Hornchurch": {
    "lat": 51.554093,
    "lng": 0.219116,
    "name": "Hornchurch Underground Station"
  },
  "Hendon_Central": {
    "lat": 51.583301,
    "lng": -0.226424,
    "name": "Hendon Central Underground Station"
  },
  "Hillingdon_metropolitan": {
    "lat": 51.553715,
    "lng": -0.449828,
    "name": "Hillingdon Underground Station"
  },
  "Hanger_Lane": {
    "lat": 51.530177,
    "lng": -0.292704,
    "name": "Hanger Lane Underground Station"
  },
  "Highgate": {
    "lat": 51.577532,
    "lng": -0.145857,
    "name": "Highgate Underground Station"
  },
  "Hatton_Cross": {
    "lat": 51.466747,
    "lng": -0.423191,
    "name": "Hatton Cross Underground Station"
  },
  "Hyde_Park_Corner": {
    "lat": 51.503035,
    "lng": -0.152441,
    "name": "Hyde Park Corner Underground Station"
  },
  "Holland_Park": {
    "lat": 51.507143,
    "lng": -0.205679,
    "name": "Holland Park Underground Station"
  },
  "Heathrow_Central": {
    "lat": 51.471987,
    "lng": -0.454788,
    "name": "Heathrow Terminals 2 & 3 Rail Station"
  },
  "Hammersmith_circle": {
    "lat": 51.4923,
    "lng": -0.22362,
    "name": "Hammersmith (Dist&Picc Line) Underground Station"
  },
  "High_Street_Kensington_circle": {
    "lat": 51.501055,
    "lng": -0.192792,
    "name": "High Street Kensington Underground Station"
  },
  "Hampstead": {
    "lat": 51.556239,
    "lng": -0.177464,
    "name": "Hampstead Underground Station"
  },
  "Hounslow_Central": {
    "lat": 51.471295,
    "lng": -0.366578,
    "name": "Hounslow Central Underground Station"
  },
  "Hounslow_East": {
    "lat": 51.473213,
    "lng": -0.356474,
    "name": "Hounslow East Underground Station"
  },
  "Hounslow_West": {
    "lat": 51.473469,
    "lng": -0.386544,
    "name": "Hounslow West Underground Station"
  },
  "Holloway_Road": {
    "lat": 51.552697,
    "lng": -0.113244,
    "name": "Holloway Road Underground Station"
  },
  "Ickenham": {
    "lat": 51.561992,
    "lng": -0.442001,
    "name": "Ickenham Underground Station"
  },
  "Kilburn": {
    "lat": 51.547183,
    "lng": -0.204248,
    "name": "Kilburn Underground Station"
  },
  "Kingsbury": {
    "lat": 51.584845,
    "lng": -0.27879,
    "name": "Kingsbury Underground Station"
  },
  "Knightsbridge": {
    "lat": 51.501669,
    "lng": -0.160508,
    "name": "Knightsbridge Underground Station"
  },
  "Kennington": {
    "lat": 51.488337,
    "lng": -0.105963,
    "name": "Kennington Underground Station"
  },
  "Kilburn_Park": {
    "lat": 51.534979,
    "lng": -0.194232,
    "name": "Kilburn Park Underground Station"
  },
  "Kings_Cross_St_Pancras": {
    "lat": 51.530663,
    "lng": -0.123194,
    "name": "King's Cross St. Pancras Underground Station"
  },
  "Ladbroke_Grove_circle": {
    "lat": 51.517449,
    "lng": -0.210391,
    "name": "Ladbroke Grove Underground Station"
  },
  "Lambeth_North": {
    "lat": 51.498808,
    "lng": -0.112315,
    "name": "Lambeth North Underground Station"
  },
  "Lancaster_Gate": {
    "lat": 51.511723,
    "lng": -0.175494,
    "name": "Lancaster Gate Underground Station"
  },
  "Latimer_Road_circle": {
    "lat": 51.513389,
    "lng": -0.217799,
    "name": "Latimer Road Underground Station"
  },
  "Leicester_Square": {
    "lat": 51.511386,
    "lng": -0.128426,
    "name": "Leicester Square Underground Station"
  },
  "Liverpool_Street_circle_base": {
    "lat": 51.517991,
    "lng": -0.081426,
    "name": "London Liverpool Street Rail Station"
  },
  "Leyton": {
    "lat": 51.556589,
    "lng": -0.005523,
    "name": "Leyton Underground Station"
  },
  "Leytonstone": {
    "lat": 51.568324,
    "lng": 0.008194,
    "name": "Leytonstone Underground Station"
  },
  "Marble_Arch": {
    "lat": 51.513424,
    "lng": -0.158953,
    "name": "Marble Arch Underground Station"
  },
  "Morden": {
    "lat": 51.408874,
    "lng": -0.192834,
    "name": "Morden Road Tram Stop"
  },
  "Mile_End": {
    "lat": 51.525122,
    "lng": -0.03364,
    "name": "Mile End Underground Station"
  },
  "Mill_Hill_East": {
    "lat": 51.608229,
    "lng": -0.209986,
    "name": "Mill Hill East Underground Station"
  },
  "Bank_Monument_hub": {
    "lat": 51.5107,
    "lng": -0.085969,
    "name": "Monument Underground Station"
  },
  "Manor_House": {
    "lat": 51.570738,
    "lng": -0.096118,
    "name": "Manor House Underground Station"
  },
  "Mansion_House_circle": {
    "lat": 51.512117,
    "lng": -0.094009,
    "name": "Mansion House Underground Station"
  },
  "Mornington_Crescent": {
    "lat": 51.534679,
    "lng": -0.138789,
    "name": "Mornington Crescent Underground Station"
  },
  "Maida_Vale": {
    "lat": 51.529777,
    "lng": -0.185758,
    "name": "Maida Vale Underground Station"
  },
  "North_Acton": {
    "lat": 51.523524,
    "lng": -0.259755,
    "name": "North Acton Underground Station"
  },
  "Newbury_Park": {
    "lat": 51.575726,
    "lng": 0.090004,
    "name": "Newbury Park Underground Station"
  },
  "Neasden": {
    "lat": 51.553986,
    "lng": -0.249837,
    "name": "Neasden Underground Station"
  },
  "North_Ealing": {
    "lat": 51.517505,
    "lng": -0.288868,
    "name": "North Ealing Underground Station"
  },
  "Northfields": {
    "lat": 51.499319,
    "lng": -0.314719,
    "name": "Northfields Underground Station"
  },
  "North_Greenwich": {
    "lat": 51.50047,
    "lng": 0.004287,
    "name": "North Greenwich Underground Station"
  },
  "North_Harrow": {
    "lat": 51.584872,
    "lng": -0.362408,
    "name": "North Harrow Underground Station"
  },
  "Notting_Hill_Gate": {
    "lat": 51.509128,
    "lng": -0.196104,
    "name": "Notting Hill Gate Underground Station"
  },
  "Northolt": {
    "lat": 51.548236,
    "lng": -0.368699,
    "name": "Northolt Underground Station"
  },
  "Northwick_Park": {
    "lat": 51.578481,
    "lng": -0.318056,
    "name": "Northwick Park Underground Station"
  },
  "Northwood": {
    "lat": 51.611053,
    "lng": -0.423829,
    "name": "Northwood Underground Station"
  },
  "Northwood_Hills": {
    "lat": 51.600572,
    "lng": -0.409464,
    "name": "Northwood Hills Underground Station"
  },
  "Oakwood": {
    "lat": 51.647726,
    "lng": -0.132182,
    "name": "Oakwood Underground Station"
  },
  "Osterley": {
    "lat": 51.481274,
    "lng": -0.352224,
    "name": "Osterley Underground Station"
  },
  "Oval": {
    "lat": 51.48185,
    "lng": -0.112439,
    "name": "Oval Underground Station"
  },
  "Oxford_Circus": {
    "lat": 51.515224,
    "lng": -0.141903,
    "name": "Oxford Circus Underground Station"
  },
  "Paddington_deep": {
    "lat": 51.515996,
    "lng": -0.176174,
    "name": "London Paddington Rail Station"
  },
  "Piccadilly_Circus": {
    "lat": 51.51005,
    "lng": -0.133798,
    "name": "Piccadilly Circus Underground Station"
  },
  "Pimlico": {
    "lat": 51.489097,
    "lng": -0.133761,
    "name": "Pimlico Underground Station"
  },
  "Park_Royal": {
    "lat": 51.527123,
    "lng": -0.284341,
    "name": "Park Royal Underground Station"
  },
  "Plaistow_district": {
    "lat": 51.531341,
    "lng": 0.017451,
    "name": "Plaistow Underground Station"
  },
  "Pinner": {
    "lat": 51.592901,
    "lng": -0.381161,
    "name": "Pinner Underground Station"
  },
  "Preston_Road": {
    "lat": 51.571972,
    "lng": -0.295107,
    "name": "Preston Road Underground Station"
  },
  "Parsons_Green": {
    "lat": 51.475277,
    "lng": -0.20117,
    "name": "Parsons Green Underground Station"
  },
  "Perivale": {
    "lat": 51.536717,
    "lng": -0.323446,
    "name": "Perivale Underground Station"
  },
  "Putney_Bridge": {
    "lat": 51.468262,
    "lng": -0.208731,
    "name": "Putney Bridge Underground Station"
  },
  "Queensbury": {
    "lat": 51.594188,
    "lng": -0.286219,
    "name": "Queensbury Underground Station"
  },
  "Queensway": {
    "lat": 51.510312,
    "lng": -0.187152,
    "name": "Queensway Underground Station"
  },
  "Redbridge": {
    "lat": 51.576243,
    "lng": 0.04536,
    "name": "Redbridge Underground Station"
  },
  "Regents_Park": {
    "lat": 51.523344,
    "lng": -0.146444,
    "name": "Regent's Park Underground Station"
  },
  "Ruislip_Gardens": {
    "lat": 51.560736,
    "lng": -0.41071,
    "name": "Ruislip Gardens Underground Station"
  },
  "Ruislip_Manor_metropolitan": {
    "lat": 51.573202,
    "lng": -0.412973,
    "name": "Ruislip Manor Underground Station"
  },
  "Ruislip_metropolitan": {
    "lat": 51.571354,
    "lng": -0.421898,
    "name": "Ruislip Underground Station"
  },
  "Russell_Square": {
    "lat": 51.523073,
    "lng": -0.124285,
    "name": "Russell Square Underground Station"
  },
  "Ravenscourt_Park": {
    "lat": 51.494122,
    "lng": -0.235881,
    "name": "Ravenscourt Park Underground Station"
  },
  "Roding_Valley": {
    "lat": 51.617199,
    "lng": 0.043647,
    "name": "Roding Valley Underground Station"
  },
  "Rayners_Lane": {
    "lat": 51.575147,
    "lng": -0.371127,
    "name": "Rayners Lane Underground Station"
  },
  "Royal_Oak_circle": {
    "lat": 51.519113,
    "lng": -0.188748,
    "name": "Royal Oak Underground Station"
  },
  "Shepherds_Bush_nr": {
    "lat": 51.505285,
    "lng": -0.217654,
    "name": "Shepherds Bush Rail Station"
  },
  "Shepherds_Bush_Market_circle": {
    "lat": 51.505579,
    "lng": -0.226375,
    "name": "Shepherd's Bush Market Underground Station"
  },
  "South_Ealing": {
    "lat": 51.501003,
    "lng": -0.307424,
    "name": "South Ealing Underground Station"
  },
  "Stamford_Brook": {
    "lat": 51.494917,
    "lng": -0.245704,
    "name": "Stamford Brook Underground Station"
  },
  "Southfields": {
    "lat": 51.445073,
    "lng": -0.206602,
    "name": "Southfields Underground Station"
  },
  "Stepney_Green_district": {
    "lat": 51.521858,
    "lng": -0.046596,
    "name": "Stepney Green Underground Station"
  },
  "Southgate": {
    "lat": 51.632315,
    "lng": -0.127816,
    "name": "Southgate Underground Station"
  },
  "South_Harrow": {
    "lat": 51.564888,
    "lng": -0.352492,
    "name": "South Harrow Underground Station"
  },
  "St_Jamess_Park_circle": {
    "lat": 51.499544,
    "lng": -0.133608,
    "name": "St. James's Park Underground Station"
  },
  "St_Johns_Wood": {
    "lat": 51.534521,
    "lng": -0.173948,
    "name": "St. John's Wood Underground Station"
  },
  "South_Kensington": {
    "lat": 51.494094,
    "lng": -0.174138,
    "name": "South Kensington Underground Station"
  },
  "Stockwell": {
    "lat": 51.472184,
    "lng": -0.122644,
    "name": "Stockwell Underground Station"
  },
  "Snaresbrook": {
    "lat": 51.580678,
    "lng": 0.02144,
    "name": "Snaresbrook Underground Station"
  },
  "St_Pauls": {
    "lat": 51.514936,
    "lng": -0.097567,
    "name": "St. Paul's Underground Station"
  },
  "Sloane_Square_circle": {
    "lat": 51.49227,
    "lng": -0.156377,
    "name": "Sloane Square Underground Station"
  },
  "Stanmore": {
    "lat": 51.619839,
    "lng": -0.303266,
    "name": "Stanmore Underground Station"
  },
  "Sudbury_Hill": {
    "lat": 51.556946,
    "lng": -0.336435,
    "name": "Sudbury Hill Underground Station"
  },
  "Sudbury_Town": {
    "lat": 51.550815,
    "lng": -0.315745,
    "name": "Sudbury Town Underground Station"
  },
  "Swiss_Cottage": {
    "lat": 51.543681,
    "lng": -0.174894,
    "name": "Swiss Cottage Underground Station"
  },
  "South_Woodford": {
    "lat": 51.591907,
    "lng": 0.027338,
    "name": "South Woodford Underground Station"
  },
  "Southwark": {
    "lat": 51.50427,
    "lng": -0.105331,
    "name": "Southwark Underground Station"
  },
  "South_Wimbledon": {
    "lat": 51.415309,
    "lng": -0.192005,
    "name": "South Wimbledon Underground Station"
  },
  "Totteridge_And_Whetstone": {
    "lat": 51.630597,
    "lng": -0.17921,
    "name": "Totteridge & Whetstone Underground Station"
  },
  "Tooting_Bec": {
    "lat": 51.435678,
    "lng": -0.159736,
    "name": "Tooting Bec Underground Station"
  },
  "Tooting_Broadway": {
    "lat": 51.42763,
    "lng": -0.168374,
    "name": "Tooting Broadway Underground Station"
  },
  "Tottenham_Court_Road_cr": {
    "lat": 51.515974,
    "lng": -0.130241,
    "name": "Tottenham Court Road"
  },
  "Tufnell_Park": {
    "lat": 51.556822,
    "lng": -0.138433,
    "name": "Tufnell Park Underground Station"
  },
  "Temple_circle": {
    "lat": 51.511006,
    "lng": -0.11426,
    "name": "Temple Underground Station"
  },
  "Turnham_Green_district": {
    "lat": 51.495148,
    "lng": -0.254555,
    "name": "Turnham Green Underground Station"
  },
  "Turnpike_Lane": {
    "lat": 51.590272,
    "lng": -0.102953,
    "name": "Turnpike Lane Underground Station"
  },
  "Tower_Hill": {
    "lat": 51.509971,
    "lng": -0.076546,
    "name": "Tower Hill Underground Station"
  },
  "Upminster_Bridge": {
    "lat": 51.55856,
    "lng": 0.235809,
    "name": "Upminster Bridge Underground Station"
  },
  "Upton_Park_district": {
    "lat": 51.53534,
    "lng": 0.035263,
    "name": "Upton Park Underground Station"
  },
  "Upney": {
    "lat": 51.538372,
    "lng": 0.10153,
    "name": "Upney Underground Station"
  },
  "Uxbridge_metropolitan": {
    "lat": 51.546565,
    "lng": -0.477949,
    "name": "Uxbridge Underground Station"
  },
  "Victoria": {
    "lat": 51.496359,
    "lng": -0.143102,
    "name": "Victoria Underground Station"
  },
  "Vauxhall": {
    "lat": 51.485743,
    "lng": -0.124204,
    "name": "Vauxhall Underground Station"
  },
  "White_City": {
    "lat": 51.511959,
    "lng": -0.224297,
    "name": "White City Underground Station"
  },
  "West_Finchley": {
    "lat": 51.609426,
    "lng": -0.188362,
    "name": "West Finchley Underground Station"
  },
  "West_Hampstead": {
    "lat": 51.547468,
    "lng": -0.191185,
    "name": "West Hampstead Rail Station"
  },
  "West_Harrow": {
    "lat": 51.57971,
    "lng": -0.3534,
    "name": "West Harrow Underground Station"
  },
  "Willesden_Green": {
    "lat": 51.549146,
    "lng": -0.221537,
    "name": "Willesden Green Underground Station"
  },
  "Wimbledon_Park": {
    "lat": 51.434573,
    "lng": -0.199719,
    "name": "Wimbledon Park Underground Station"
  },
  "Warwick_Avenue": {
    "lat": 51.523263,
    "lng": -0.183783,
    "name": "Warwick Avenue Underground Station"
  },
  "West_Kensington": {
    "lat": 51.490459,
    "lng": -0.206636,
    "name": "West Kensington Underground Station"
  },
  "Wood_Lane": {
    "lat": 51.509669,
    "lng": -0.22453,
    "name": "Wood Lane Underground Station"
  },
  "Woodford": {
    "lat": 51.606899,
    "lng": 0.03397,
    "name": "Woodford Underground Station"
  },
  "Wood_Green": {
    "lat": 51.597479,
    "lng": -0.109886,
    "name": "Wood Green Underground Station"
  },
  "Woodside_Park": {
    "lat": 51.3871,
    "lng": -0.065361,
    "name": "Woodside Tram Stop"
  },
  "Warren_Street": {
    "lat": 51.524951,
    "lng": -0.138321,
    "name": "Warren Street Underground Station"
  },
  "Wanstead": {
    "lat": 51.575501,
    "lng": 0.028527,
    "name": "Wanstead Underground Station"
  },
  "Westminster": {
    "lat": 51.50132,
    "lng": -0.124861,
    "name": "Westminster Underground Station"
  },
  "Westbourne_Park_circle": {
    "lat": 51.52111,
    "lng": -0.201065,
    "name": "Westbourne Park Underground Station"
  },
  "West_Acton": {
    "lat": 51.518001,
    "lng": -0.28098,
    "name": "West Acton Underground Station"
  },
  "Wembley_Park": {
    "lat": 51.563198,
    "lng": -0.279262,
    "name": "Wembley Park Underground Station"
  },
  "Battersea_Power_Station": {
    "lat": 51.479932,
    "lng": -0.142142,
    "name": "Battersea Power Station Underground Station"
  },
  "Blackfriars": {
    "lat": 51.511581,
    "lng": -0.103659,
    "name": "Blackfriars Underground Station"
  },
  "Barking": {
    "lat": 51.539495,
    "lng": 0.080903,
    "name": "Barking Rail Station"
  },
  "Buckhurst_Hill": {
    "lat": 51.626605,
    "lng": 0.046757,
    "name": "Buckhurst Hill Underground Station"
  },
  "Blackhorse_Road": {
    "lat": 51.586605,
    "lng": -0.041236,
    "name": "Blackhorse Road Rail Station"
  },
  "Canning_Town": {
    "lat": 51.514127,
    "lng": 0.008101,
    "name": "Canning Town DLR Station"
  },
  "Chigwell": {
    "lat": 51.617916,
    "lng": 0.075041,
    "name": "Chigwell Underground Station"
  },
  "Canada_Water": {
    "lat": 51.49799,
    "lng": -0.04972,
    "name": "Canada Water Rail Station"
  },
  "Debden": {
    "lat": 51.645386,
    "lng": 0.083782,
    "name": "Debden Underground Station"
  },
  "Ealing_Broadway": {
    "lat": 51.514841,
    "lng": -0.301752,
    "name": "Ealing Broadway Rail Station"
  },
  "Epping": {
    "lat": 51.69368,
    "lng": 0.113767,
    "name": "Epping Underground Station"
  },
  "Gunnersbury": {
    "lat": 51.491678,
    "lng": -0.275286,
    "name": "Gunnersbury Rail Station"
  },
  "Greenford": {
    "lat": 51.542424,
    "lng": -0.34605,
    "name": "Greenford Underground Station"
  },
  "Grange_Hill": {
    "lat": 51.613378,
    "lng": 0.092066,
    "name": "Grange Hill Underground Station"
  },
  "Highbury_and_Islington": {
    "lat": 51.546177,
    "lng": -0.103764,
    "name": "Highbury & Islington Rail Station"
  },
  "Harrow_and_Wealdstone": {
    "lat": 51.592169,
    "lng": -0.334571,
    "name": "Harrow & Wealdstone Rail Station"
  },
  "Hainault": {
    "lat": 51.603659,
    "lng": 0.093482,
    "name": "Hainault Underground Station"
  },
  "Harrow_on_the_Hill": {
    "lat": 51.579195,
    "lng": -0.337225,
    "name": "Harrow-on-the-Hill Underground Station"
  },
  "Heathrow_4_piccadilly": {
    "lat": 51.458268,
    "lng": -0.445463,
    "name": "Heathrow Terminal 4 Rail Station"
  },
  "Heathrow_5_Piccadilly": {
    "lat": 51.470053,
    "lng": -0.490589,
    "name": "Heathrow Terminal 5 Rail Station"
  },
  "Heathrow_23": {
    "lat": 51.471352,
    "lng": -0.45229,
    "name": "Heathrow Terminals 1-2-3 Underground Station"
  },
  "Harlesden_bakerloo": {
    "lat": 51.536289,
    "lng": -0.257667,
    "name": "Harlesden Rail Station"
  },
  "Kenton": {
    "lat": 51.581802,
    "lng": -0.316981,
    "name": "Kenton Rail Station"
  },
  "Kensington_Olympia": {
    "lat": 51.497899,
    "lng": -0.210364,
    "name": "Kensington (Olympia) Rail Station"
  },
  "Kentish_Town": {
    "lat": 51.550312,
    "lng": -0.140733,
    "name": "Kentish Town Underground Station"
  },
  "Kensal_Green_bakerloo": {
    "lat": 51.53054,
    "lng": -0.225088,
    "name": "Kensal Green Rail Station"
  },
  "Kew_Gardens_district": {
    "lat": 51.477073,
    "lng": -0.285054,
    "name": "Kew Gardens Rail Station"
  },
  "Loughton": {
    "lat": 51.641443,
    "lng": 0.055476,
    "name": "Loughton Underground Station"
  },
  "London_Bridge": {
    "lat": 51.505721,
    "lng": -0.088873,
    "name": "London Bridge Underground Station"
  },
  "Moorgate_base": {
    "lat": 51.518176,
    "lng": -0.088322,
    "name": "Moorgate Underground Station"
  },
  "Marylebone": {
    "lat": 51.522322,
    "lng": -0.163207,
    "name": "Marylebone Underground Station"
  },
  "North_Wembley_bakerloo": {
    "lat": 51.562596,
    "lng": -0.303984,
    "name": "North Wembley Rail Station"
  },
  "Old_Street": {
    "lat": 51.525864,
    "lng": -0.08777,
    "name": "Old Street Underground Station"
  },
  "Queens_Park": {
    "lat": 51.533966,
    "lng": -0.204985,
    "name": "Queens Park (London) Rail Station"
  },
  "Richmond": {
    "lat": 51.463061,
    "lng": -0.301558,
    "name": "Richmond (London) Rail Station"
  },
  "Shepherds_Bush_tube": {
    "lat": 51.504376,
    "lng": -0.218813,
    "name": "Shepherd's Bush (Central) Underground Station"
  },
  "Stonebridge_Park_bakerloo": {
    "lat": 51.544111,
    "lng": -0.275828,
    "name": "Stonebridge Park Rail Station"
  },
  "South_Kenton_bakerloo": {
    "lat": 51.570214,
    "lng": -0.308462,
    "name": "South Kenton Rail Station"
  },
  "South_Ruislip": {
    "lat": 51.556853,
    "lng": -0.398915,
    "name": "South Ruislip Underground Station"
  },
  "Stratford": {
    "lat": 51.541895,
    "lng": -0.003397,
    "name": "Stratford (London) Rail Station"
  },
  "Seven_Sisters": {
    "lat": 51.582268,
    "lng": -0.07527,
    "name": "Seven Sisters Rail Station"
  },
  "Theydon_Bois": {
    "lat": 51.671759,
    "lng": 0.103085,
    "name": "Theydon Bois Underground Station"
  },
  "Tottenham_Hale": {
    "lat": 51.588108,
    "lng": -0.060241,
    "name": "Tottenham Hale Underground Station"
  },
  "Upminster": {
    "lat": 51.559018,
    "lng": 0.25088,
    "name": "Upminster Rail Station"
  },
  "West_Brompton": {
    "lat": 51.487061,
    "lng": -0.195593,
    "name": "West Brompton Rail Station"
  },
  "West_Ham": {
    "lat": 51.527894,
    "lng": 0.004482,
    "name": "West Ham DLR Station"
  },
  "Wimbledon": {
    "lat": 51.421051,
    "lng": -0.205816,
    "name": "Wimbledon Tram Stop"
  },
  "Willesden_Junction": {
    "lat": 51.532497,
    "lng": -0.244548,
    "name": "Willesden Junction Rail Station"
  },
  "Waterloo": {
    "lat": 51.503299,
    "lng": -0.11478,
    "name": "Waterloo Underground Station"
  },
  "Whitechapel": {
    "lat": 51.51943,
    "lng": -0.060191,
    "name": "Whitechapel"
  },
  "West_Ruislip": {
    "lat": 51.569688,
    "lng": -0.437886,
    "name": "West Ruislip Underground Station"
  },
  "Walthamstow_Central": {
    "lat": 51.582919,
    "lng": -0.019815,
    "name": "Walthamstow Central Rail Station"
  },
  "Wembley_Central": {
    "lat": 51.552325,
    "lng": -0.296433,
    "name": "Wembley Central Rail Station"
  },
  "Nine_Elms": {
    "lat": 51.479912,
    "lng": -0.128476,
    "name": "Nine Elms Underground Station"
  },
  "Abbey_Road": {
    "lat": 51.531926,
    "lng": 0.003737,
    "name": "Abbey Road DLR Station"
  },
  "All_Saints": {
    "lat": 51.511,
    "lng": -0.013135,
    "name": "All Saints DLR Station"
  },
  "Blackwall": {
    "lat": 51.507991,
    "lng": -0.006969,
    "name": "Blackwall DLR Station"
  },
  "Beckton": {
    "lat": 51.514362,
    "lng": 0.061453,
    "name": "Beckton DLR Station"
  },
  "Bow_Church": {
    "lat": 51.527858,
    "lng": -0.020936,
    "name": "Bow Church DLR Station"
  },
  "Beckton_Park": {
    "lat": 51.508793,
    "lng": 0.054932,
    "name": "Beckton Park DLR Station"
  },
  "Crossharbour": {
    "lat": 51.495728,
    "lng": -0.014606,
    "name": "Crossharbour DLR Station"
  },
  "Custom_House_for_ExCeL": {
    "lat": 51.509716,
    "lng": 0.026699,
    "name": "Custom House (for ExCel) DLR Station"
  },
  "Cutty_Sark_for_Maritime_Greenwich": {
    "lat": 51.481671,
    "lng": -0.01081,
    "name": "Cutty Sark (for Maritime Greenwich) DLR Station"
  },
  "Cyprus": {
    "lat": 51.508473,
    "lng": 0.063925,
    "name": "Cyprus DLR Station"
  },
  "Deptford_Bridge": {
    "lat": 51.474215,
    "lng": -0.022438,
    "name": "Deptford Bridge DLR Station"
  },
  "Devons_Road": {
    "lat": 51.522667,
    "lng": -0.017615,
    "name": "Devons Road DLR Station"
  },
  "East_India": {
    "lat": 51.509359,
    "lng": -0.002326,
    "name": "East India DLR Station"
  },
  "Elverson_Road": {
    "lat": 51.469074,
    "lng": -0.016728,
    "name": "Elverson Road DLR Station"
  },
  "Gallions_Reach": {
    "lat": 51.508941,
    "lng": 0.071555,
    "name": "Gallions Reach DLR Station"
  },
  "Greenwich": {
    "lat": 51.478087,
    "lng": -0.013673,
    "name": "Greenwich DLR Station"
  },
  "Heron_Quays": {
    "lat": 51.503379,
    "lng": -0.021421,
    "name": "Heron Quays DLR Station"
  },
  "Island_Gardens": {
    "lat": 51.487811,
    "lng": -0.010139,
    "name": "Island Gardens DLR Station"
  },
  "King_George_V": {
    "lat": 51.502003,
    "lng": 0.062624,
    "name": "King George V DLR Station"
  },
  "London_City_Airport": {
    "lat": 51.503416,
    "lng": 0.048739,
    "name": "London City Airport DLR Station"
  },
  "Lewisham": {
    "lat": 51.464665,
    "lng": -0.012874,
    "name": "Lewisham DLR Station"
  },
  "Mudchute": {
    "lat": 51.490704,
    "lng": -0.014738,
    "name": "Mudchute DLR Station"
  },
  "Poplar": {
    "lat": 51.507744,
    "lng": -0.017384,
    "name": "Poplar DLR Station"
  },
  "Prince_Regent": {
    "lat": 51.509263,
    "lng": 0.034158,
    "name": "Prince Regent DLR Station"
  },
  "Pudding_Mill_Lane": {
    "lat": 51.534302,
    "lng": -0.012755,
    "name": "Pudding Mill Lane DLR Station"
  },
  "Royal_Albert": {
    "lat": 51.508357,
    "lng": 0.045935,
    "name": "Royal Albert DLR Station"
  },
  "Royal_Victoria": {
    "lat": 51.509336,
    "lng": 0.018497,
    "name": "Royal Victoria DLR Station"
  },
  "Shadwell": {
    "lat": 51.511284,
    "lng": -0.056934,
    "name": "Shadwell Rail Station"
  },
  "Stratford_High_Street": {
    "lat": 51.538196,
    "lng": -0.001078,
    "name": "Stratford High Street DLR Station"
  },
  "Stratford_International": {
    "lat": 51.545265,
    "lng": -0.009638,
    "name": "Stratford International DLR Station"
  },
  "South_Quay": {
    "lat": 51.50005,
    "lng": -0.01597,
    "name": "South Quay DLR Station"
  },
  "Star_Lane": {
    "lat": 51.520786,
    "lng": 0.004156,
    "name": "Star Lane DLR Station"
  },
  "Tower_Gateway": {
    "lat": 51.510617,
    "lng": -0.074818,
    "name": "Tower Gateway DLR Station"
  },
  "Westferry": {
    "lat": 51.509431,
    "lng": -0.02675,
    "name": "Westferry DLR Station"
  },
  "West_India_Quay": {
    "lat": 51.50703,
    "lng": -0.020311,
    "name": "West India Quay DLR Station"
  },
  "Woolwich_Arsenal": {
    "lat": 51.490009,
    "lng": 0.069127,
    "name": "Woolwich Arsenal DLR Station"
  },
  "West_Silvertown": {
    "lat": 51.502838,
    "lng": 0.02246,
    "name": "West Silvertown DLR Station"
  },
  "Langdon_Park": {
    "lat": 51.515172,
    "lng": -0.01415,
    "name": "Langdon Park DLR Station"
  },
  "Limehouse": {
    "lat": 51.512393,
    "lng": -0.039809,
    "name": "Limehouse DLR Station"
  },
  "Pontoon_Dock": {
    "lat": 51.502212,
    "lng": 0.032115,
    "name": "Pontoon Dock DLR Station"
  },
  "Bushey": {
    "lat": 51.645691,
    "lng": -0.385612,
    "name": "Bushey Rail Station"
  },
  "Cheshunt": {
    "lat": 51.702876,
    "lng": -0.02396,
    "name": "Cheshunt Rail Station"
  },
  "Carpenders_Park": {
    "lat": 51.628351,
    "lng": -0.385939,
    "name": "Carpenders Park Rail Station"
  },
  "Theobalds_Grove": {
    "lat": 51.692457,
    "lng": -0.034831,
    "name": "Theobalds Grove Rail Station"
  },
  "Watford_High_Street": {
    "lat": 51.652655,
    "lng": -0.391711,
    "name": "Watford High Street Rail Station"
  },
  "Watford_Junction": {
    "lat": 51.663529,
    "lng": -0.396517,
    "name": "Watford Junction Rail Station"
  },
  "Acton_Central": {
    "lat": 51.508716,
    "lng": -0.262971,
    "name": "Acton Central Rail Station"
  },
  "Anerley": {
    "lat": 51.412153,
    "lng": -0.065886,
    "name": "Anerley Rail Station"
  },
  "Bush_Hill_Park": {
    "lat": 51.641519,
    "lng": -0.069221,
    "name": "Bush Hill Park Rail Station"
  },
  "Barking_Riverside": {
    "lat": 51.51953,
    "lng": 0.11596,
    "name": "Barking Riverside"
  },
  "Brondesbury": {
    "lat": 51.545166,
    "lng": -0.202309,
    "name": "Brondesbury Rail Station"
  },
  "Brondesbury_Park": {
    "lat": 51.540734,
    "lng": -0.210054,
    "name": "Brondesbury Park Rail Station"
  },
  "Brockley": {
    "lat": 51.464649,
    "lng": -0.037537,
    "name": "Brockley Rail Station"
  },
  "Bruce_Grove": {
    "lat": 51.593959,
    "lng": -0.069867,
    "name": "Bruce Grove Rail Station"
  },
  "Chingford": {
    "lat": 51.633087,
    "lng": 0.009897,
    "name": "Chingford Rail Station"
  },
  "Clapton": {
    "lat": 51.561644,
    "lng": -0.057025,
    "name": "Clapton Rail Station"
  },
  "Caledonian_Road_and_Barnsbury": {
    "lat": 51.543041,
    "lng": -0.116729,
    "name": "Caledonian Road & Barnsbury Rail Station"
  },
  "Clapham_High_Street": {
    "lat": 51.465481,
    "lng": -0.132522,
    "name": "Clapham High Street Rail Station"
  },
  "Clapham_Junction": {
    "lat": 51.464188,
    "lng": -0.170293,
    "name": "Clapham Junction Rail Station"
  },
  "Camden_Road": {
    "lat": 51.541791,
    "lng": -0.138701,
    "name": "Camden Road Rail Station"
  },
  "Canonbury": {
    "lat": 51.548732,
    "lng": -0.092191,
    "name": "Canonbury Rail Station"
  },
  "Crouch_Hill": {
    "lat": 51.571302,
    "lng": -0.117149,
    "name": "Crouch Hill Rail Station"
  },
  "Crystal_Palace": {
    "lat": 51.418109,
    "lng": -0.07261,
    "name": "Crystal Palace Rail Station"
  },
  "Imperial_Wharf": {
    "lat": 51.474949,
    "lng": -0.182823,
    "name": "Imperial Wharf Rail Station"
  },
  "Dalston_Junction": {
    "lat": 51.546116,
    "lng": -0.075137,
    "name": "Dalston Junction Rail Station"
  },
  "Dalston_Kingsland": {
    "lat": 51.548148,
    "lng": -0.075701,
    "name": "Dalston Kingsland Rail Station"
  },
  "Denmark_Hill": {
    "lat": 51.468203,
    "lng": -0.089361,
    "name": "Denmark Hill Rail Station"
  },
  "Edmonton_Green": {
    "lat": 51.624929,
    "lng": -0.061112,
    "name": "Edmonton Green Rail Station"
  },
  "Emerson_Park": {
    "lat": 51.568642,
    "lng": 0.220113,
    "name": "Emerson Park Rail Station"
  },
  "Enfield_Town": {
    "lat": 51.652026,
    "lng": -0.079328,
    "name": "Enfield Town Rail Station"
  },
  "Finchley_Road_and_Frognal": {
    "lat": 51.550266,
    "lng": -0.183141,
    "name": "Finchley Road & Frognal Rail Station"
  },
  "Forest_Hill": {
    "lat": 51.43928,
    "lng": -0.053157,
    "name": "Forest Hill Rail Station"
  },
  "Gospel_Oak": {
    "lat": 51.555335,
    "lng": -0.15077,
    "name": "Gospel Oak Rail Station"
  },
  "Hackney_Central": {
    "lat": 51.547105,
    "lng": -0.056058,
    "name": "Hackney Central Rail Station"
  },
  "Hackney_Wick": {
    "lat": 51.54341,
    "lng": -0.02492,
    "name": "Hackney Wick Rail Station"
  },
  "Haggerston": {
    "lat": 51.538705,
    "lng": -0.075666,
    "name": "Haggerston Rail Station"
  },
  "Hackney_Downs": {
    "lat": 51.548757,
    "lng": -0.060819,
    "name": "Hackney Downs Rail Station"
  },
  "Headstone_Lane": {
    "lat": 51.602649,
    "lng": -0.35722,
    "name": "Headstone Lane Rail Station"
  },
  "Highams_Park": {
    "lat": 51.60835,
    "lng": -0.000222,
    "name": "Highams Park Rail Station"
  },
  "Hampstead_Heath": {
    "lat": 51.55521,
    "lng": -0.165705,
    "name": "Hampstead Heath Rail Station"
  },
  "Homerton": {
    "lat": 51.547012,
    "lng": -0.04236,
    "name": "Homerton Rail Station"
  },
  "Honor_Oak_Park": {
    "lat": 51.449989,
    "lng": -0.045505,
    "name": "Honor Oak Park Rail Station"
  },
  "Hoxton": {
    "lat": 51.531512,
    "lng": -0.075681,
    "name": "Hoxton Rail Station"
  },
  "Harringay_Green_Lanes": {
    "lat": 51.577182,
    "lng": -0.098144,
    "name": "Harringay Green Lanes Rail Station"
  },
  "Hatch_End": {
    "lat": 51.609417,
    "lng": -0.368601,
    "name": "Hatch End Rail Station"
  },
  "Kensal_Rise": {
    "lat": 51.534554,
    "lng": -0.219957,
    "name": "Kensal Rise Rail Station"
  },
  "Kilburn_High_Road": {
    "lat": 51.537277,
    "lng": -0.192237,
    "name": "Kilburn High Road Rail Station"
  },
  "Kentish_Town_West": {
    "lat": 51.546548,
    "lng": -0.146655,
    "name": "Kentish Town West Rail Station"
  },
  "Leyton_Midland_Road": {
    "lat": 51.569725,
    "lng": -0.008051,
    "name": "Leyton Midland Road Rail Station"
  },
  "London_Fields": {
    "lat": 51.541153,
    "lng": -0.057753,
    "name": "London Fields Rail Station"
  },
  "Leytonstone_High_Road": {
    "lat": 51.563554,
    "lng": 0.008416,
    "name": "Leytonstone High Road Rail Station"
  },
  "New_Cross_Gate": {
    "lat": 51.475128,
    "lng": -0.040399,
    "name": "New Cross Gate Rail Station"
  },
  "Norwood_Junction": {
    "lat": 51.397019,
    "lng": -0.075221,
    "name": "Norwood Junction Rail Station"
  },
  "Queens_Road_Peckham": {
    "lat": 51.473566,
    "lng": -0.057313,
    "name": "Queens Road Peckham Rail Station"
  },
  "Peckham_Rye": {
    "lat": 51.470034,
    "lng": -0.069414,
    "name": "Peckham Rye Rail Station"
  },
  "Penge_West": {
    "lat": 51.417555,
    "lng": -0.06084,
    "name": "Penge West Rail Station"
  },
  "Rectory_Road": {
    "lat": 51.558502,
    "lng": -0.068267,
    "name": "Rectory Road Rail Station"
  },
  "Romford": {
    "lat": 51.574829,
    "lng": 0.183237,
    "name": "Romford Rail Station"
  },
  "Rotherhithe": {
    "lat": 51.500817,
    "lng": -0.052048,
    "name": "Rotherhithe Rail Station"
  },
  "South_Acton": {
    "lat": 51.499695,
    "lng": -0.270157,
    "name": "South Acton Rail Station"
  },
  "Southbury": {
    "lat": 51.648705,
    "lng": -0.052437,
    "name": "Southbury Rail Station"
  },
  "South_Hampstead": {
    "lat": 51.541432,
    "lng": -0.178878,
    "name": "South Hampstead Rail Station"
  },
  "Shoreditch_High_Street": {
    "lat": 51.523375,
    "lng": -0.075246,
    "name": "Shoreditch High Street Rail Station"
  },
  "Silver_Street": {
    "lat": 51.614688,
    "lng": -0.06724,
    "name": "Silver Street Rail Station"
  },
  "Stoke_Newington": {
    "lat": 51.565233,
    "lng": -0.072887,
    "name": "Stoke Newington Rail Station"
  },
  "Stamford_Hill": {
    "lat": 51.574467,
    "lng": -0.076682,
    "name": "Stamford Hill Rail Station"
  },
  "South_Tottenham": {
    "lat": 51.580372,
    "lng": -0.072103,
    "name": "South Tottenham Rail Station"
  },
  "Surrey_Quays": {
    "lat": 51.493196,
    "lng": -0.047519,
    "name": "Surrey Quays Rail Station"
  },
  "Sydenham": {
    "lat": 51.427248,
    "lng": -0.054244,
    "name": "Sydenham Rail Station"
  },
  "Turkey_Street": {
    "lat": 51.672628,
    "lng": -0.047217,
    "name": "Turkey Street Rail Station"
  },
  "Upper_Holloway": {
    "lat": 51.563631,
    "lng": -0.129513,
    "name": "Upper Holloway Rail Station"
  },
  "Wapping": {
    "lat": 51.504388,
    "lng": -0.055931,
    "name": "Wapping Rail Station"
  },
  "West_Croydon": {
    "lat": 51.378971,
    "lng": -0.101701,
    "name": "West Croydon Tram Stop"
  },
  "Woodgrange_Park": {
    "lat": 51.549264,
    "lng": 0.044423,
    "name": "Woodgrange Park Rail Station"
  },
  "Wood_Street": {
    "lat": 51.58658,
    "lng": -0.002405,
    "name": "Wood Street Rail Station"
  },
  "White_Hart_Lane": {
    "lat": 51.605037,
    "lng": -0.070914,
    "name": "White Hart Lane Rail Station"
  },
  "Walthamstow_Queens_Road": {
    "lat": 51.581503,
    "lng": -0.023846,
    "name": "Walthamstow Queens Road Rail Station"
  },
  "Wanstead_Park": {
    "lat": 51.551693,
    "lng": 0.026213,
    "name": "Wanstead Park Rail Station"
  },
  "Wandsworth_Road": {
    "lat": 51.470216,
    "lng": -0.13852,
    "name": "Wandsworth Road Rail Station"
  },
  "Cambridge_Heath": {
    "lat": 51.531973,
    "lng": -0.057279,
    "name": "Cambridge Heath (London) Rail Station"
  },
  "Euston_Overground_NR": {
    "lat": 51.528136,
    "lng": -0.133924,
    "name": "London Euston Rail Station"
  },
  "New_Cross": {
    "lat": 51.476344,
    "lng": -0.032441,
    "name": "New Cross ELL Rail Station"
  },
  "St_James_Street": {
    "lat": 51.580981,
    "lng": -0.032918,
    "name": "St James Street (London) Rail Station"
  },
  "Abbey_Wood": {
    "lat": 51.491241,
    "lng": 0.121374,
    "name": "Abbey Wood"
  },
  "Acton_Main_Line": {
    "lat": 51.51718,
    "lng": -0.266756,
    "name": "Acton Main Line Rail Station"
  },
  "Burnham": {
    "lat": 51.523506,
    "lng": -0.646374,
    "name": "Burnham (Berks) Rail Station"
  },
  "Brentwood": {
    "lat": 51.613605,
    "lng": 0.299586,
    "name": "Brentwood Rail Station"
  },
  "Chadwell_Heath": {
    "lat": 51.568039,
    "lng": 0.128958,
    "name": "Chadwell Heath Rail Station"
  },
  "Forest_Gate": {
    "lat": 51.549432,
    "lng": 0.024353,
    "name": "Forest Gate Rail Station"
  },
  "Gidea_Park": {
    "lat": 51.581904,
    "lng": 0.205964,
    "name": "Gidea Park Rail Station"
  },
  "Goodmayes": {
    "lat": 51.565579,
    "lng": 0.110807,
    "name": "Goodmayes Rail Station"
  },
  "Hanwell": {
    "lat": 51.511835,
    "lng": -0.338583,
    "name": "Hanwell Rail Station"
  },
  "Hayes_and_Harlington": {
    "lat": 51.503096,
    "lng": -0.420683,
    "name": "Hayes & Harlington Rail Station"
  },
  "Harold_Wood": {
    "lat": 51.592766,
    "lng": 0.233129,
    "name": "Harold Wood Rail Station"
  },
  "Ilford": {
    "lat": 51.559118,
    "lng": 0.06968,
    "name": "Ilford Rail Station"
  },
  "Iver": {
    "lat": 51.508503,
    "lng": -0.506726,
    "name": "Iver Rail Station"
  },
  "Langley": {
    "lat": 51.508062,
    "lng": -0.541756,
    "name": "Langley (Berks) Rail Station"
  },
  "Manor_Park": {
    "lat": 51.552477,
    "lng": 0.046342,
    "name": "Manor Park Rail Station"
  },
  "Maidenhead": {
    "lat": 51.518669,
    "lng": -0.72266,
    "name": "Maidenhead Rail Station"
  },
  "Maryland": {
    "lat": 51.546081,
    "lng": 0.005815,
    "name": "Maryland Rail Station"
  },
  "Reading": {
    "lat": 51.458786,
    "lng": -0.971863,
    "name": "Reading Rail Station"
  },
  "Shenfield": {
    "lat": 51.630877,
    "lng": 0.329851,
    "name": "Shenfield Rail Station"
  },
  "Slough": {
    "lat": 51.51188,
    "lng": -0.59151,
    "name": "Slough Rail Station"
  },
  "Southall": {
    "lat": 51.505957,
    "lng": -0.37861,
    "name": "Southall Rail Station"
  },
  "Seven_Kings": {
    "lat": 51.564026,
    "lng": 0.0971,
    "name": "Seven Kings Rail Station"
  },
  "Taplow": {
    "lat": 51.523562,
    "lng": -0.68137,
    "name": "Taplow Rail Station"
  },
  "Twyford": {
    "lat": 51.475534,
    "lng": -0.863293,
    "name": "Twyford Rail Station"
  },
  "West_Drayton": {
    "lat": 51.510055,
    "lng": -0.472234,
    "name": "West Drayton Rail Station"
  },
  "West_Ealing": {
    "lat": 51.513506,
    "lng": -0.320133,
    "name": "West Ealing Rail Station"
  },
  "Woolwich": {
    "lat": 51.49119,
    "lng": 0.07072,
    "name": "Woolwich"
  },
  "Fenchurch_Street": {
    "lat": 51.373708,
    "lng": -0.104361,
    "name": "Church Street Tram Stop"
  },
  "Barons_Court_piccadilly": {
    "lat": 51.490311,
    "lng": -0.213427,
    "name": "Barons Court Underground Station"
  },
  "Bayswater_district": {
    "lat": 51.512284,
    "lng": -0.187938,
    "name": "Bayswater Underground Station"
  },
  "Bethnal_Green_central": {
    "lat": 51.523917,
    "lng": -0.059568,
    "name": "Bethnal Green Rail Station"
  },
  "Bromley-by-Bow_hnc": {
    "lat": 51.524839,
    "lng": -0.011538,
    "name": "Bromley-by-Bow Underground Station"
  },
  "Canary_Wharf_elizabeth": {
    "lat": 51.506321,
    "lng": -0.018815,
    "name": "Canary Wharf"
  },
  "Canary_Wharf_jubilee": {
    "lat": 51.506321,
    "lng": -0.018815,
    "name": "Canary Wharf"
  },
  "East_Ham_hnc": {
    "lat": 51.538948,
    "lng": 0.051186,
    "name": "East Ham Underground Station"
  },
  "Eastcote_piccadilly": {
    "lat": 51.576506,
    "lng": -0.397373,
    "name": "Eastcote Underground Station"
  },
  "Edgware_Road_circle": {
    "lat": 51.519858,
    "lng": -0.167832,
    "name": "Edgware Road (Circle Line) Underground Station"
  },
  "Farringdon_elizabeth": {
    "lat": 51.519961,
    "lng": -0.103051,
    "name": "Farringdon"
  },
  "Goldhawk_Road_hnc": {
    "lat": 51.502005,
    "lng": -0.226715,
    "name": "Goldhawk Road Underground Station"
  },
  "Great_Portland_Street_hnc": {
    "lat": 51.52384,
    "lng": -0.144262,
    "name": "Great Portland Street Underground Station"
  },
  "Great_Portland_Street_metropolitan": {
    "lat": 51.52384,
    "lng": -0.144262,
    "name": "Great Portland Street Underground Station"
  },
  "Hammersmith_district": {
    "lat": 51.4923,
    "lng": -0.22362,
    "name": "Hammersmith (Dist&Picc Line) Underground Station"
  },
  "Harlesden_overground": {
    "lat": 51.536289,
    "lng": -0.257667,
    "name": "Harlesden Rail Station"
  },
  "Heathrow_4_elizabeth": {
    "lat": 51.458268,
    "lng": -0.445463,
    "name": "Heathrow Terminal 4 Rail Station"
  },
  "Heathrow_5_elizabeth": {
    "lat": 51.470053,
    "lng": -0.490589,
    "name": "Heathrow Terminal 5 Rail Station"
  },
  "High_Street_Kensington_district": {
    "lat": 51.501055,
    "lng": -0.192792,
    "name": "High Street Kensington Underground Station"
  },
  "Hillingdon_piccadilly": {
    "lat": 51.553715,
    "lng": -0.449828,
    "name": "Hillingdon Underground Station"
  },
  "Kensal_Green_overground": {
    "lat": 51.53054,
    "lng": -0.225088,
    "name": "Kensal Green Rail Station"
  },
  "Kew_Gardens_overground": {
    "lat": 51.477073,
    "lng": -0.285054,
    "name": "Kew Gardens Rail Station"
  },
  "Ladbroke_Grove_hnc": {
    "lat": 51.517449,
    "lng": -0.210391,
    "name": "Ladbroke Grove Underground Station"
  },
  "Latimer_Road_hnc": {
    "lat": 51.513389,
    "lng": -0.217799,
    "name": "Latimer Road Underground Station"
  },
  "Liverpool_Street_circle_top": {
    "lat": 51.517991,
    "lng": -0.081426,
    "name": "London Liverpool Street Rail Station"
  },
  "Liverpool_Street_elizabeth_base": {
    "lat": 51.517991,
    "lng": -0.081426,
    "name": "London Liverpool Street Rail Station"
  },
  "Liverpool_Street_elizabeth_top": {
    "lat": 51.517991,
    "lng": -0.081426,
    "name": "London Liverpool Street Rail Station"
  },
  "Liverpool_Street_nr": {
    "lat": 51.517991,
    "lng": -0.081426,
    "name": "London Liverpool Street Rail Station"
  },
  "Mansion_House_district": {
    "lat": 51.512117,
    "lng": -0.094009,
    "name": "Mansion House Underground Station"
  },
  "Moorgate_mid": {
    "lat": 51.518176,
    "lng": -0.088322,
    "name": "Moorgate Underground Station"
  },
  "Moorgate_top": {
    "lat": 51.518176,
    "lng": -0.088322,
    "name": "Moorgate Underground Station"
  },
  "North_Wembley_overground": {
    "lat": 51.562596,
    "lng": -0.303984,
    "name": "North Wembley Rail Station"
  },
  "Paddington_deep_base": {
    "lat": 51.515996,
    "lng": -0.176174,
    "name": "London Paddington Rail Station"
  },
  "Paddington_elizabeth": {
    "lat": 51.515996,
    "lng": -0.176174,
    "name": "London Paddington Rail Station"
  },
  "Paddington_elizabeth_base": {
    "lat": 51.515996,
    "lng": -0.176174,
    "name": "London Paddington Rail Station"
  },
  "Paddington_nr": {
    "lat": 51.515996,
    "lng": -0.176174,
    "name": "London Paddington Rail Station"
  },
  "Paddington_surface": {
    "lat": 51.515996,
    "lng": -0.176174,
    "name": "London Paddington Rail Station"
  },
  "Plaistow_hnc": {
    "lat": 51.531341,
    "lng": 0.017451,
    "name": "Plaistow Underground Station"
  },
  "Royal_Oak_hnc": {
    "lat": 51.519113,
    "lng": -0.188748,
    "name": "Royal Oak Underground Station"
  },
  "Ruislip_Manor_piccadilly": {
    "lat": 51.573202,
    "lng": -0.412973,
    "name": "Ruislip Manor Underground Station"
  },
  "Ruislip_piccadilly": {
    "lat": 51.571354,
    "lng": -0.421898,
    "name": "Ruislip Underground Station"
  },
  "Shepherds_Bush_Market_hnc": {
    "lat": 51.505579,
    "lng": -0.226375,
    "name": "Shepherd's Bush Market Underground Station"
  },
  "Sloane_Square_district": {
    "lat": 51.49227,
    "lng": -0.156377,
    "name": "Sloane Square Underground Station"
  },
  "South_Kenton_overground": {
    "lat": 51.570214,
    "lng": -0.308462,
    "name": "South Kenton Rail Station"
  },
  "St_Jamess_Park_district": {
    "lat": 51.499544,
    "lng": -0.133608,
    "name": "St. James's Park Underground Station"
  },
  "Stepney_Green_hnc": {
    "lat": 51.521858,
    "lng": -0.046596,
    "name": "Stepney Green Underground Station"
  },
  "Stonebridge_Park_overground": {
    "lat": 51.544111,
    "lng": -0.275828,
    "name": "Stonebridge Park Rail Station"
  },
  "Temple_district": {
    "lat": 51.511006,
    "lng": -0.11426,
    "name": "Temple Underground Station"
  },
  "Turnham_Green_piccadilly": {
    "lat": 51.495148,
    "lng": -0.254555,
    "name": "Turnham Green Underground Station"
  },
  "Upton_Park_hnc": {
    "lat": 51.53534,
    "lng": 0.035263,
    "name": "Upton Park Underground Station"
  },
  "Uxbridge_piccadilly": {
    "lat": 51.546565,
    "lng": -0.477949,
    "name": "Uxbridge Underground Station"
  },
  "Westbourne_Park_hnc": {
    "lat": 51.52111,
    "lng": -0.201065,
    "name": "Westbourne Park Underground Station"
  },
  "Euston_Northern_Victoria": {
    "lat": 51.528136,
    "lng": -0.133924,
    "name": "London Euston Rail Station"
  },
  "Battersea_Park": {
    "lat": 51.4775,
    "lng": -0.1475,
    "name": "Battersea Park Rail Station"
  },
  "Castle_Bar_Park": {
    "lat": 51.5236,
    "lng": -0.3317,
    "name": "Castle Bar Park Rail Station"
  },
  "Drayton_Green": {
    "lat": 51.5167,
    "lng": -0.3317,
    "name": "Drayton Green Rail Station"
  },
  "Old_Oak_Common": {
    "lat": 51.5194,
    "lng": -0.2319,
    "name": "Old Oak Common (under construction)"
  },
  "South_Greenford": {
    "lat": 51.542424,
    "lng": -0.34605,
    "name": "South Greenford Rail Station"
  },
  "Surrey_Canal": {
    "lat": 51.493196,
    "lng": -0.047519,
    "name": "Surrey Canal (likely Surrey Quays)"
  }
}
